{
  "type": "FeatureCollection",
  "features": [
    {
      "type": "Feature",
      "id": 32,
      "properties": {
        "Code": "POCH",
        "Name": "Port Chicago Naval Magazine National Memorial"
      },
      "geometry": {
        "type": "Point",
        "coordinates": [
          -122.02968997340061,
          38.05752521711916
        ]
      }
    },
    {
      "type": "Feature",
      "id": 66,
      "properties": {
        "Code": "EUON",
        "Name": "Eugene O'Neill National Historic Site"
      },
      "geometry": {
        "type": "Point",
        "coordinates": [
          -122.02666421306343,
          37.82592473657651
        ]
      }
    },
    {
      "type": "Feature",
      "id": 69,
      "properties": {
        "Code": "FOPO",
        "Name": "Fort Point National Historic Site"
      },
      "geometry": {
        "type": "Point",
        "coordinates": [
          -122.47371724398397,
          37.8084002052445
        ]
      }
    },
    {
      "type": "Feature",
      "id": 72,
      "properties": {
        "Code": "RORI",
        "Name": "Rosie the Riveter WWII Home Front National Historical Park"
      },
      "geometry": {
        "type": "Point",
        "coordinates": [
          -122.36653505635901,
          37.90866832535756
        ]
      }
    },
    {
      "type": "Feature",
      "id": 84,
      "properties": {
        "Code": "MUWO",
        "Name": "Muir Woods National Monument"
      },
      "geometry": {
        "type": "Point",
        "coordinates": [
          -122.59219031030287,
          37.899655100144244
        ]
      }
    },
    {
      "type": "Feature",
      "id": 88,
      "properties": {
        "Code": "SAFR",
        "Name": "San Francisco Maritime National Historical Park"
      },
      "geometry": {
        "type": "Point",
        "coordinates": [
          -122.42364633393989,
          37.80857191826663
        ]
      }
    },
    {
      "type": "Feature",
      "id": 111,
      "properties": {
        "Code": "CABR",
        "Name": "Cabrillo National Monument"
      },
      "geometry": {
        "type": "Point",
        "coordinates": [
          -117.24147362061612,
          32.67243113084509
        ]
      }
    },
    {
      "type": "Feature",
      "id": 158,
      "properties": {
        "Code": "DEPO",
        "Name": "Devils Postpile National Monument"
      },
      "geometry": {
        "type": "Point",
        "coordinates": [
          -119.08739032309173,
          37.61525639858674
        ]
      }
    },
    {
      "type": "Feature",
      "id": 172,
      "properties": {
        "Code": "JOMU",
        "Name": "John Muir National Historic Site"
      },
      "geometry": {
        "type": "Point",
        "coordinates": [
          -122.13599464018154,
          37.98259638345624
        ]
      }
    },
    {
      "type": "Feature",
      "id": 184,
      "properties": {
        "Code": "PRSF",
        "Name": "Presidio of San Francisco"
      },
      "geometry": {
        "type": "Point",
        "coordinates": [
          -122.46713073964011,
          37.79654317448044
        ]
      }
    },
    {
      "type": "Feature",
      "id": 200,
      "properties": {
        "Code": "MANZ",
        "Name": "Manzanar National Historic Site"
      },
      "geometry": {
        "type": "Point",
        "coordinates": [
          -118.15471770065676,
          36.72559195291623
        ]
      }
    },
    {
      "type": "Feature",
      "id": 267,
      "properties": {
        "Code": "LABE",
        "Name": "Lava Beds National Monument"
      },
      "geometry": {
        "type": "Point",
        "coordinates": [
          -121.5213368153262,
          41.761497369483116
        ]
      }
    },
    {
      "type": "Feature",
      "id": 275,
      "properties": {
        "Code": "WHIS",
        "Name": "Whiskeytown National Recreation Area"
      },
      "geometry": {
        "type": "Point",
        "coordinates": [
          -122.60226571677792,
          40.61359940526877
        ]
      }
    },
    {
      "type": "Feature",
      "id": 277,
      "properties": {
        "Code": "PINN",
        "Name": "Pinnacles National Monument"
      },
      "geometry": {
        "type": "Point",
        "coordinates": [
          -121.18110088326603,
          36.4901310064952
        ]
      }
    },
    {
      "type": "Feature",
      "id": 332,
      "properties": {
        "Code": "LAVO",
        "Name": "Lassen Volcanic National Park"
      },
      "geometry": {
        "type": "Point",
        "coordinates": [
          -121.41212664904383,
          40.48622026090819
        ]
      }
    },
    {
      "type": "Feature",
      "id": 341,
      "properties": {
        "Code": "DEVA",
        "Name": "Death Valley National Park"
      },
      "geometry": {
        "type": "Point",
        "coordinates": [
          -117.13511154435771,
          36.48741910067162
        ]
      }
    },
    {
      "type": "Feature",
      "id": 342,
      "properties": {
        "Code": "REDW",
        "Name": "Redwood National and State Parks"
      },
      "geometry": {
        "type": "Point",
        "coordinates": [
          -124.00482968014182,
          41.27702956462916
        ]
      }
    },
    {
      "type": "Feature",
      "id": 343,
      "properties": {
        "Code": "GOGA",
        "Name": "Golden Gate National Recreation Area"
      },
      "geometry": {
        "type": "Point",
        "coordinates": [
          -122.55146603311029,
          37.862648681885084
        ]
      }
    },
    {
      "type": "Feature",
      "id": 344,
      "properties": {
        "Code": "YOSE",
        "Name": "Yosemite National Park"
      },
      "geometry": {
        "type": "Point",
        "coordinates": [
          -119.55600729459782,
          37.84893656911814
        ]
      }
    },
    {
      "type": "Feature",
      "id": 345,
      "properties": {
        "Code": "SAMO",
        "Name": "Santa Monica Mountains National Recreation Area"
      },
      "geometry": {
        "type": "Point",
        "coordinates": [
          -118.910464470296,
          34.10214700522728
        ]
      }
    },
    {
      "type": "Feature",
      "id": 346,
      "properties": {
        "Code": "PORE",
        "Name": "Point Reyes National Seashore"
      },
      "geometry": {
        "type": "Point",
        "coordinates": [
          -122.86492337132071,
          38.05557132213282
        ]
      }
    },
    {
      "type": "Feature",
      "id": 347,
      "properties": {
        "Code": "KICA",
        "Name": "Kings Canyon National Park"
      },
      "geometry": {
        "type": "Point",
        "coordinates": [
          -118.59384064032848,
          36.8749421087923
        ]
      }
    },
    {
      "type": "Feature",
      "id": 348,
      "properties": {
        "Code": "JOTR",
        "Name": "Joshua Tree National Park"
      },
      "geometry": {
        "type": "Point",
        "coordinates": [
          -116.15907084356105,
          33.98096522850808
        ]
      }
    },
    {
      "type": "Feature",
      "id": 349,
      "properties": {
        "Code": "MOJA",
        "Name": "Mojave National Preserve"
      },
      "geometry": {
        "type": "Point",
        "coordinates": [
          -115.5570103212086,
          35.10066435137423
        ]
      }
    },
    {
      "type": "Feature",
      "id": 350,
      "properties": {
        "Code": "SEKI",
        "Name": "Sequoia & Kings Canyon National Parks"
      },
      "geometry": {
        "type": "Point",
        "coordinates": [
          -118.5752011004094,
          36.50785282265928
        ]
      }
    },
    {
      "type": "Feature",
      "id": 351,
      "properties": {
        "Code": "CHIS",
        "Name": "Channel Islands National Park"
      },
      "geometry": {
        "type": "Point",
        "coordinates": [
          -119.7251698451474,
          34.00392978229205
        ]
      }
    }
  ]
}
